[{"number":55,"name":"00055 - ST SERNIN G. ARNOULT","address":"2 RUE GATIEN ARNOULT","latitude":43.608951960496405,"longitude":1.441003598726198},{"number":195,"name":"00195 - LARROUSSE -RIEUX","address":"FACE 15 RUE PIERRE LAROUSSE","latitude":43.59723540303583,"longitude":1.45907112459247},{"number":229,"name":"00229 - IUT RANGUEIL","address":"129 AV DE RANGUEIL","latitude":43.571433064051334,"longitude":1.46278065695466},{"number":65,"name":"00065 - VERDIER - GRAND ROND","address":"2 ALL FORAIN FRANCOIS VERDIER","latitude":43.597074846780274,"longitude":1.452605307400692},{"number":22,"name":"00022 - CARNOT ROLAND","address":"24 BD LAZARE CARNOT","latitude":43.60221990815785,"longitude":1.45195665819857},{"number":236,"name":"00236 - TOEC / LEMIRE","address":"RUE DE L'ABBE JULES LEMIRE","latitude":43.59729443895585,"longitude":1.403872948950036},{"number":111,"name":"00111 - MINIMES PASSERELLE","address":"38B BD DES MINIMES","latitude":43.615259799224134,"longitude":1.442921175845342},{"number":243,"name":"00243 - ETATS-UNIS / FERRY","address":"96 av des Etats-Unis angle rue Jules Ferry","latitude":43.632641237523,"longitude":1.43180804154469},{"number":174,"name":"00174 - MAUNOURY / MELA","address":"41 AV MAURICE BOURGES MAUNOURY","latitude":43.63692179179762,"longitude":1.452693250180783},{"number":137,"name":"00137 - BRUNHES-FONTAINES","address":"47 BD JEAN BRUNHES","latitude":43.60094924792523,"longitude":1.420275802412521},{"number":144,"name":"00144 - SUISSE - LAUSANE","address":"62 BD DE SUISSE","latitude":43.61606217398145,"longitude":1.421715694303944},{"number":40,"name":"00040 - COLOMBETTE","address":"41 RUE DE LA COLOMBETTE","latitude":43.604660136134775,"longitude":1.453588691746783},{"number":3,"name":"00003 - POMME","address":"62 RUE DE LA POMME","latitude":43.60333593826575,"longitude":1.445569311598848},{"number":139,"name":"00139 - BARRIERE DE LOMBEZ","address":"39 BIS AV DE LOMBEZ","latitude":43.5955673906372,"longitude":1.418420510391943},{"number":93,"name":"00093 - PRINTEMPS","address":"57 RUE DU PRINTEMPS","latitude":43.614465544425535,"longitude":1.44361404386217},{"number":81,"name":"00081 - JARDIN RAYMOND VI","address":"ALL CHARLES DE FITTE","latitude":43.59989498759688,"longitude":1.429556601823956},{"number":248,"name":"00248 - BOUQUETINS/E. ROSTAND","address":"RUE DES BOUQUETINS ANGLE RUE EDMOND ROSTAND","latitude":43.64108958806659,"longitude":1.449039275575635},{"number":53,"name":"00053 - PLACE SAINT JULIEN","address":"PL SAINT JULIEN","latitude":43.60863633636605,"longitude":1.437631489341106},{"number":87,"name":"00087 - LASCROSSES LECLERC","address":"47 BD LASCROSSES","latitude":43.609500004240715,"longitude":1.432335729928681},{"number":121,"name":"00121 - SERRES - A. BERNARD","address":"33 AV HONRE SERRES","latitude":43.612327522628846,"longitude":1.438340345212284},{"number":239,"name":"00239 - LESPINET / HERBETTES","address":"FACE AU 127 AVENUE DE LESPINET","latitude":43.577166917623245,"longitude":1.469393836823441},{"number":1,"name":"00001 - POIDS DE L'HUILE","address":"12 RUE DU POIDS DE L'HUILE","latitude":43.604134687021045,"longitude":1.445420780739279},{"number":7,"name":"00007 - PLACE VICTOR HUGO","address":"6 RUE DU REMPART VILLENEUVE","latitude":43.605852162177925,"longitude":1.446593812218414},{"number":259,"name":"00259 - PLACE RICHE","address":"Place Riche / Lalande - 31000 TOULOUSE","latitude":43.64751,"longitude":1.43298},{"number":234,"name":"00234 - LOIN / RAYNAL","address":"RUE LOIN 100M AVT RAYNAL","latitude":43.628236592839514,"longitude":1.451330504561275},{"number":192,"name":"00192 - RTE DE ST SIMON/PRADO","address":"355 route de saint-Simon","latitude":43.587659413053814,"longitude":1.409162125552512},{"number":48,"name":"00048 - PLACE DU SALIN","address":"18 PL DU SALIN","latitude":43.59474911973265,"longitude":1.444132711268797},{"number":175,"name":"00175 - METRO MAUNOURY","address":"Avenue Maurice BOURGES MAUNOURY","latitude":43.6394555737186,"longitude":1.45256734914219},{"number":166,"name":"00166 - RANGUEIL GUYOU","address":"23 RUE GUYOU","latitude":43.574366149048714,"longitude":1.462031097914686},{"number":135,"name":"00135 - BONNEFOY   LEMAITRE","address":"183 RUE DU FB  BONNEFOY","latitude":43.62295,"longitude":1.45872},{"number":115,"name":"00115 - DEMOISELLES MISTRAL","address":"8 ALL DES DEMOISELLES","latitude":43.590622011025665,"longitude":1.453805825078145},{"number":67,"name":"00067 - MUSEUM","address":"35 ALL JULES GUESDE","latitude":43.59468,"longitude":1.44938},{"number":188,"name":"00188 - MURET/LAFAGE","address":"121 AVENUE DE MURET","latitude":43.584282965328995,"longitude":1.427517107421507},{"number":178,"name":"00178 - BRUNAUD / PLANA","address":"AVENUE YVES BRUNAUD","latitude":43.619281402937425,"longitude":1.468753766918999},{"number":41,"name":"00041 - ST AUBIN CAMICHEL","address":"1 RUE CHARLES CAMICHEL","latitude":43.60265364232074,"longitude":1.454436078796189},{"number":90,"name":"00090 - LASCROSSES- A. BERNARD","address":"3B BD LASCROSSES","latitude":43.61146971436288,"longitude":1.437871385550754},{"number":109,"name":"00109 - METRO CANAL DU MIDI","address":"1 BD DE LA MARQUETTE","latitude":43.615173611788045,"longitude":1.434707777421923},{"number":197,"name":"00197 - CASERNE PERIGNON","address":"6 AV LOUIS BLERIOT","latitude":43.60038605818475,"longitude":1.464093716152017},{"number":23,"name":"00023 - COMBATTANTS","address":"6 BD LAZARE CARNOT","latitude":43.60128593726337,"longitude":1.452057713684133},{"number":273,"name":"00273 - PASSERIEU - ST SIMON","address":"ROND POINT DES IZARD ANGLEPASSERIEU ET ROUTE ST SIMON","latitude":43.5792,"longitude":1.39262},{"number":29,"name":"00029 - VALADE","address":"31 RUE VALADE","latitude":43.605071904633625,"longitude":1.437032051956223},{"number":280,"name":"280 - CHARBONNIERE","address":"RUE DE LA CHARBONNIERE ANGLE RUE DES PALMIERS 31000 TOULOUSE","latitude":43.57383,"longitude":1.44871},{"number":156,"name":"00156 - METRO EMPALOT","address":"38 AV JEAN MOULIN FACE DEBOUCHE RUE DE CANNES","latitude":43.579737115748195,"longitude":1.441783289134449},{"number":242,"name":"00242 -  RAIMBAUD / COLETTE","address":"RUE RAIMBAUD ANGLE RUE COLETTE","latitude":43.633866178151905,"longitude":1.437493796200118},{"number":224,"name":"00224 - CAMPUS SUPAERO","address":"AVENUE EDOUARD BELIN FACE CHÂTEAU DU CREPS","latitude":43.566595761363736,"longitude":1.474881961695726},{"number":154,"name":"00154 - GALLOIS","address":"RUE DES GALLOIS","latitude":43.58995890864312,"longitude":1.4420311550308},{"number":96,"name":"00096 - MEDIATHEQUE","address":"50 RUE DU GENERAL COMPANS","latitude":43.60974282737991,"longitude":1.455204795385279},{"number":152,"name":"00152 - MAZADES","address":"10 AV DES MAZADES","latitude":43.624183134252704,"longitude":1.438302180907754},{"number":276,"name":"00276 - MARIN REBOUL","address":"chemin du Marin angle chemin du Reboul","latitude":43.58132,"longitude":1.37975},{"number":77,"name":"00077 - PLACE INT SAINT CYPRIEN","address":"2 PL INTERIEURE ST CYPRIEN","latitude":43.597835830061406,"longitude":1.431605284631358},{"number":25,"name":"00025 - PLACE ROUAIX","address":"1 RUE DES TOURNEURS","latitude":43.599435045967155,"longitude":1.445580732388259},{"number":74,"name":"00074 - LAGANNE TEINTURIERS","address":"37 RUE LAGANNE","latitude":43.596660562935625,"longitude":1.436175197009508},{"number":71,"name":"00071 - COURS DILLON","address":"3 RUE LAGANNE","latitude":43.59318934283672,"longitude":1.434894328349442},{"number":105,"name":"00105 - BILLIERE -CHAMPETRE","address":"12  AV  ETIENNE  BILLIERES","latitude":43.59764204883991,"longitude":1.428862699237109},{"number":64,"name":"00064 - PERI MERCADIER","address":"0030 RUE GABRIEL PERI","latitude":43.60617263070887,"longitude":1.454987798766018},{"number":60,"name":"00060 - ROQUELAINE","address":"32 PL ROQUELAINE","latitude":43.61263652233987,"longitude":1.448541598385468},{"number":36,"name":"00036 - PLACE SCHUMAN","address":"5 PL ROBERT SCHUMAN","latitude":43.609623167283914,"longitude":1.449367822982907},{"number":227,"name":"00227 - METRO UPS","address":"118  RTE DE NARBONNE","latitude":43.56160969546884,"longitude":1.462869145576551},{"number":187,"name":"00187 - DESBALS MONTDORE","address":"187 RUE HENRI DESBALS","latitude":43.584523123495174,"longitude":1.415543960373121},{"number":225,"name":"00225 - BELIN ONERA","address":"AVENUE EDOUARD BELIN DEVANT ONERA","latitude":43.56947707206279,"longitude":1.473268554354084},{"number":84,"name":"00084 - BRIENNE MANUFACTURE","address":"19T ALL DE BRIENNE","latitude":43.60524239596951,"longitude":1.432687682718845},{"number":208,"name":"00208 - LIMAYRAC/ DARASSE","address":"ALL DE LIMAYRAC","latitude":43.59122002356995,"longitude":1.480087483756261},{"number":131,"name":"00131 - BERNIES","address":"15 RUE PAUL BERNIES","latitude":43.61174111564092,"longitude":1.414597471267562},{"number":37,"name":"00037 - STE LUCIE","address":"53 RUE STE LUCIE","latitude":43.593506929037055,"longitude":1.429880706043356},{"number":266,"name":"00266 - TOURAINE","address":"38 RUE DE LA TOURAINE ANGLE RUE D AUVERGNE 31000 TOULOUSE","latitude":43.57375,"longitude":1.41398},{"number":79,"name":"00079 - PLACE LANGE","address":"1 PL LANGE","latitude":43.60112880561738,"longitude":1.434138106708093},{"number":210,"name":"00210 - TERRASSE/ CENTRE CO.","address":"FACE 42 CHE DE LA TERRASSE","latitude":43.586074956653995,"longitude":1.483021040946601},{"number":75,"name":"00075 - CHATEAU D EAU","address":"12 PL LAGANNE","latitude":43.598542607102175,"longitude":1.436590757220506},{"number":221,"name":"00221 - VAUQUELIN","address":"FACE 85 RUE VAUQUELIN","latitude":43.57641895477528,"longitude":1.406488768851485},{"number":128,"name":"00128 - PRISON ST MICHEL","address":"18 B GRANDE RUE ST MICHEL","latitude":43.58589564207925,"longitude":1.447411881616044},{"number":118,"name":"00118 - PLACE DU BUSCA","address":"2 PLACE DU BUSCA","latitude":43.58817925392077,"longitude":1.450764528471522},{"number":68,"name":"00068 - METRO - PALAIS DE JUSTICE","address":"1 BIS ALLEE JULES GUESDE","latitude":43.59265,"longitude":1.44455},{"number":147,"name":"00147 - CHAUSSAS - DAUDET","address":"96 RUE DE CHAUSSAS","latitude":43.61990748467363,"longitude":1.428966282419491},{"number":153,"name":"00153 - BOURGES MAUNOURY","address":"12 AV BOURGES MAUNOURY","latitude":43.628469420497346,"longitude":1.447936286895422},{"number":262,"name":"00262 - ROND POINT CHEMIN DE BORDEROUGE","address":"Devant N°26 Chemin de Borderouge","latitude":43.64265,"longitude":1.45632},{"number":233,"name":"00233 - NARBONNE /SAHUQUE","address":"105 RTE DE NARBONNE","latitude":43.56641276350635,"longitude":1.458852500499583},{"number":21,"name":"00021 - CARNOT LABEDA","address":"63 BD LAZARE CARNOT","latitude":43.60411143798555,"longitude":1.450245130369442},{"number":244,"name":"00244 - RENAN / VITRY","address":"93 RUE ERNEST RENAN ANGLE RUE VITRY","latitude":43.635706776069696,"longitude":1.443751822397876},{"number":245,"name":"00245 - GRANDE BRETAGNE / BADIOU","address":"103 BIS AVENUE DE GRANDE BRETAGNE ANGLE RUE BADIOU","latitude":43.59990824072129,"longitude":1.41518438915584},{"number":260,"name":"00260 - DUCLOS - FRONTON","address":"Avenue duclos angle Avenue de Fronton","latitude":43.64495,"longitude":1.43379},{"number":228,"name":"00228 - METRO PHARMACIE","address":"FACE 35 CHEMIN DES MARAICHERS","latitude":43.567716505871594,"longitude":1.464456852027628},{"number":235,"name":"00235 - PAUL VERLAINE","address":"FACE AU 8 RUE PAUL VERLAINE","latitude":43.6333722270955,"longitude":1.43538536091475},{"number":150,"name":"00150 - CURIE CAMPISTRON","address":"78 BD PIERRE ET MARIE CURIE","latitude":43.62593095954932,"longitude":1.439870900566373},{"number":271,"name":"00271 - ANCELY","address":"151 AVENUE DE CASSELARDIT SORTIE VILLE 31000 TOULOUSE","latitude":43.61948,"longitude":1.39711},{"number":33,"name":"00033 - BERALDI","address":"11 RUE HENRI BERALDI","latitude":43.608568713084686,"longitude":1.443570238387108},{"number":172,"name":"00172 - NETWILLER / LAFORGUE","address":"RUE HENRI EBELOT","latitude":43.642833569777416,"longitude":1.461191671613412},{"number":120,"name":"00120 - PONTS JUMEAUX","address":"152 ALL DE BARCELONE","latitude":43.61035351524297,"longitude":1.420545407442975},{"number":217,"name":"00217 - AMOUROUX/ ST TROPEZ","address":"42 CHE AMOUROUX","latitude":43.629671600633195,"longitude":1.466442513411802},{"number":173,"name":"00173 - MAUNOURY / SEGELA","address":"25 AV MAURICE BOURGES MAUNOURY","latitude":43.6331828272491,"longitude":1.450535969934731},{"number":143,"name":"00143 - DESBALS SAINTONGE","address":"145 RUE HENRI DESBALS","latitude":43.5813322052426,"longitude":1.413431676051568},{"number":106,"name":"00106 - BRIENNE PASSERELLE","address":"99 ALL DE BRIENNE","latitude":43.60842211156853,"longitude":1.42386687477895},{"number":123,"name":"00123 - CHAUSSAS EMBOUCHURE","address":"1 RUE DE CHAUSSAS","latitude":43.61492465117555,"longitude":1.43288072066524},{"number":6,"name":"00006 - LOIS","address":"5 RUE DES LOIS","latitude":43.605203861405954,"longitude":1.442101445768934},{"number":257,"name":"00257 - CHATEAU DE L'HERS","address":"CHEMIN DU CHATEAU DE L'HERS ANGLE CHEMIN FONTANELLES 31000 TOULOUSE","latitude":43.60086,"longitude":1.48346}]